[
  {
    "name": "Pasumpon nagar ration shop",
    "street": "5/393A, Nehru Cross St",
    "city": "Chennai",
    "state": "Tamil Nadu",
    "latitude": 12.904313259020434,
    "longitude": 80.19317679139535
  },
  {
    "name": "Sholinganallur Ration Shop",
    "street": "B1 Rd, Old pondicherry road",
    "city": "Chennai",
    "state": "Tamil Nadu",
    "latitude": 12.883069145725036,
    "longitude": 80.23238865060195
  },
  {
    "name": "Nanmangalam Ration Shop",
    "street": "Perumal Koil St",
    "city": "Chennai",
    "state": "Tamil Nadu",
    "latitude": 12.93903818851389,
    "longitude": 80.17681916541287
  },
  {
    "name": "Thoraipakkam Ration",
    "street": "Ellaiamman Nagar",
    "city": "Chennai",
    "state": "Tamil Nadu",
    "latitude": 12.944306933652564,
    "longitude": 80.23681733544564
  },
  {
    "name": "Thiruvalluvar Nagar Ration",
    "street": "4/292, Nethaji St",
    "city": "Chennai",
    "state": "Tamil Nadu",
    "latitude": 12.910738054288714,
    "longitude": 80.1973246472873
  },
  {
    "name": "Indira Nagar Government Ration Shop",
    "street": "Indira Nagar",
    "city": "Chennai",
    "state": "Tamil Nadu",
    "latitude": 12.88739497012592,
    "longitude": 80.19154463665302
  },
  {
    "name": "Jalladianpet Ration Shop",
    "street": "VGP Prabhu Nagar Main Rd",
    "city": "Chennai",
    "state": "Tamil Nadu",
    "latitude": 12.92008079914862,
    "longitude": 80.20239393050635
  },
  {
    "name": "Medavakkam Ration Shop",
    "street": "Krishnaveni Nagar",
    "city": "Chennai",
    "state": "Tamil Nadu",
    "latitude": 12.91291299551934,
    "longitude": 80.18959247621696
  },
  {
    "name": "T.U.C.S Limited Ration Shop",
    "street": "42/AP, S Sivan Koil St",
    "city": "Chennai",
    "state": "Tamil Nadu",
    "latitude": 13.047015615191098,
    "longitude": 80.2094519159061
  },
  {
    "name": "Thiruvanmiyur Ration Shop",
    "street": "Thiruvalluvar Nagar",
    "city": "Chennai",
    "state": "Tamil Nadu",
    "latitude": 12.975725389683326,
    "longitude": 80.26229675058572
  },
  {
    "name": "Sudarshan Nagar Ration Shop",
    "street": "Madambakkam",
    "city": "Chennai",
    "state": "Tamil Nadu",
    "latitude": 12.91018417570725,
    "longitude": 80.15912309783295
  },
  {
    "name": "Sinthamani Ration Shop",
    "street": "Chetpet",
    "city": "Chennai",
    "state": "Tamil Nadu",
    "latitude": 13.080643792940881,
    "longitude": 80.24033332702815
  },
  {
    "name": "Velacherry Ration Shop",
    "street": "Dhandeeswaram",
    "city": "Chennai",
    "state": "Tamil Nadu",
    "latitude": 12.97928414130651,
    "longitude": 80.22296826211512
  },
  {
    "name": "Ganesh Nagar Ration Shop",
    "street": "Magalakshmi St",
    "city": "Chennai",
    "state": "Tamil Nadu",
    "latitude": 12.94150942531125,
    "longitude": 80.2476150763772
  },
  {
    "name": "Saraswathi Nagar South Ration shop",
    "street": "Saraswathi Nagar 3rd Main Rd",
    "city": "Chennai",
    "state": "Tamil Nadu",
    "latitude": 12.947902685209993,
    "longitude": 80.24860565791283
  },
  {
    "name": "Sindhamani Cooperative Ration Shop",
    "street": "32/1, Bhavani Amman Street",
    "city": "Chennai",
    "state": "Tamil Nadu",
    "latitude": 13.092311856151559,
    "longitude": 80.25176473141408
  },
  {
    "name": "Ranganathapuram Ration Shop",
    "street": "Perumal Koil St",
    "city": "Chennai",
    "state": "Tamil Nadu",
    "latitude": 12.918650213956857,
    "longitude": 80.18342673511071
  },
  {
    "name": "Rajendra Nagar Ration Shop",
    "street": "Magalakshmi St",
    "city": "Chennai",
    "state": "Tamil Nadu",
    "latitude": 12.94115694778181,
    "longitude": 80.247867197941
  },
  {
    "name": "Bharathi Nagar Ration Shop",
    "street": "Zamin Pallavaram",
    "city": "Chennai",
    "state": "Tamil Nadu",
    "latitude": 12.964992699674488,
    "longitude": 80.1582270600667
  },
  {
    "name": "CTO colony Ration shop",
    "street": "3rd St, CTO Colony, Tambaram West",
    "city": "Chennai",
    "state": "Tamil Nadu",
    "latitude": 12.929818076609527,
    "longitude": 80.09729798976196
  },
  {
    "name": "Kooturavu Ration Shop",
    "street": "United Colony",
    "city": "Chennai",
    "state": "Tamil Nadu",
    "latitude": 12.918886978202996,
    "longitude": 80.18396250480625
  }
]
